# LAS format log file from PETREL
# Project units are specified as depth units
#==================================================================
~Version information
VERS.   2.0:
WRAP.   NO:
#==================================================================
~Well
STRT .m      1499.8790000 :
STOP .m      2416.3790000 :
STEP .m     0.00000000 :
NULL .        -999.250000 :
COMP.           : COMPANY
WELL.  A10   : WELL
FLD.            : FIELD
LOC.            : LOCATION
SRVC.           : SERVICE COMPANY
DATE.  2024-10-09 18:32:15   : Log Export Date {yyyy-MM-dd HH:mm:ss}
PROV.           : PROVINCE
UWI.      : UNIQUE WELL ID
API.            : API NUMBER
#==================================================================
~Curve
DEPT .m                   : DEPTH
Gamma .gAPI               : Gamma
Perm .mD                  : Perm
Porosity .m3/m3           : Porosity
Resistivity .ohm.m        : Resistivity
LITH ._                   : LITH
~Parameter
#==================================================================
~Ascii
# ...
 1550.6290000 66.634513855 0.0035683338 0.0030659200 4.3101973534 3.0000000000
 1551.1290000 65.481483459 0.0037782930 0.0030357400 4.9386610985 3.0000000000
 1551.6290000 67.317504883 0.0028344258 0.0029064598 3.0586421490 3.0000000000
 1552.1290000 69.829170227 0.0018535223 0.0026989300 1.5394799709 3.0000000000
 1552.6290000 72.277832031 0.0011921619 0.0024664199 0.7764670849 3.0000000000
 1553.1290000 74.679473877 0.0008115271 0.0025376701 0.3379471004 3.0000000000
 1553.6290000 77.039199829 0.0006992240 0.0027059000 0.2178446203 3.0000000000
 1554.1290000 79.818054199 0.0006330857 0.0025359602 0.2059736252 3.0000000000
 1554.6290000 83.163238525 0.0005421765 0.0022580300 0.1950186193 3.0000000000
 1555.1290000 85.634315491 0.0004927362 0.0021927101 0.1718186289 2.0000000000
 1555.6290000 86.771347046 0.0005059141 0.0021952700 0.1806675196 2.0000000000
 1556.1290000 86.554359436 0.0005826483 0.0022854400 0.2193205804 3.0000000000
 1556.6290000 84.976982117 0.0007232382 0.0024035799 0.3024640977 3.0000000000
 1557.1290000 83.008964539 0.0009243761 0.0025892500 0.4194833040 3.0000000000
 1557.6290000 80.959938049 0.0011850062 0.0027964900 0.5819585919 3.0000000000
 1558.1290000 80.552299500 0.0013679452 0.0026536300 0.8703393340 3.0000000000
 1558.6290000 82.335990906 0.0014293919 0.0023989899 1.1864246130 3.0000000000
 1559.1290000 86.705421448 0.0013459461 0.0023860000 1.0645850897 3.0000000000
 1559.6290000 93.786529541 0.0011101364 0.0024501600 0.6831638813 3.0000000000
 1560.1290000 101.03632355 0.0008518303 0.0023663100 0.4342587292 3.0000000000
 1560.6290000 107.64285278 0.0006124930 0.0022352000 0.2545107603 3.0000000000
 1561.1290000 110.93250275 0.0005134121 0.0022167400 0.1821208447 3.0000000000
 1561.6290000 110.05161285 0.0005933132 0.0022342501 0.2390441746 3.0000000000
 1562.1290000 103.46317291 0.0009189817 0.0023439901 0.5160728693 3.0000000000
 1562.6290000 90.676406860 0.0015117411 0.0024831800 1.2300896645 3.0000000000
 1563.1290000 82.472366333 0.0017657928 0.0025488099 1.5846637487 3.0000000000
 1563.6290000 82.293304443 0.0014877121 0.0025909501 1.0849953890 3.0000000000
 1564.1290000 83.275451660 0.0011970674 0.0024407201 0.8011202216 3.0000000000
 1564.6290000 83.227279663 0.0010597518 0.0022290701 0.7665423751 3.0000000000
 1565.1290000 79.886169434 0.0012803412 0.0022018699 1.1495021582 3.0000000000
 1565.6290000 72.529716492 0.0019241546 0.0022335600 2.5158524513 3.0000000000
 1566.1290000 67.101524353 0.0023077743 0.0025062999 2.8087558746 3.0000000000
 1566.6290000 65.499351501 0.0022129929 0.0028560001 1.9377241135 3.0000000000
 1567.1290000 65.473289490 0.0020303647 0.0027871300 1.7210845947 3.0000000000
 1567.6290000 66.304969788 0.0018845883 0.0025846201 1.7504922152 3.0000000000
 1568.1290000 67.445236206 0.0019861148 0.0024832501 2.1230669022 3.0000000000
 1568.6290000 68.718780518 0.0024021382 0.0024141700 3.3045074940 3.0000000000
 1569.1290000 68.432579041 0.0029259708 0.0025136599 4.4860658646 3.0000000000
 1569.6290000 66.046081543 0.0034916201 0.0026669698 5.6080794334 3.0000000000
 1570.1290000 62.948841095 0.0040653683 0.0026424301 7.7587556839 3.0000000000
 1570.6290000 59.584518433 0.0046364497 0.0025611001 10.810174942 3.0000000000
 1571.1290000 56.881599426 0.0051747602 0.0026713801 12.273317337 3.0000000000
 1571.6290000 55.136535645 0.0056706881 0.0028428400 12.853345871 3.0000000000
 1572.1290000 56.251449585 0.0056180069 0.0027084800 14.033569336 3.0000000000
 1572.6290000 60.833667755 0.0048550842 0.0024764801 12.763120651 3.0000000000
 1573.1290000 67.345085144 0.0037954531 0.0025575301 7.2664389610 3.0000000000
 1573.6290000 75.294593811 0.0025711511 0.0027385300 2.8689084053 3.0000000000
 1574.1290000 84.064476013 0.0015869858 0.0026742399 1.1516095400 3.0000000000
 1574.6290000 93.457496643 0.0009722078 0.0025316400 0.4875665605 3.0000000000
 1575.1290000 97.244682312 0.0007364294 0.0025297001 0.2802272141 3.0000000000
 1575.6290000 93.437179565 0.0008827198 0.0025726699 0.3879723251 3.0000000000
 1576.1290000 85.800926208 0.0012095086 0.0026181799 0.7008402944 3.0000000000
 1576.6290000 75.538345337 0.0016524367 0.0026645099 1.2586109638 3.0000000000
 1577.1290000 68.239288330 0.0018783754 0.0026986001 1.5814666748 3.0000000000
 1577.6290000 65.688560486 0.0017809595 0.0027287798 1.3873225451 3.0000000000
 1578.1290000 66.211563110 0.0015940005 0.0026338601 1.2013593912 3.0000000000
 1578.6290000 69.273605347 0.0013921513 0.0024989999 1.0286962986 3.0000000000
 1579.1290000 74.008728027 0.0011825621 0.0023875800 0.8206169009 3.0000000000
 1579.6290000 80.140449524 0.0009675156 0.0022836400 0.6058082581 3.0000000000
 1580.1290000 86.236587524 0.0007699301 0.0022599301 0.3925487101 3.0000000000
 1580.6290000 91.839874268 0.0005971231 0.0022618400 0.2356739640 3.0000000000
 1581.1290000 95.242744446 0.0005118094 0.0023094299 0.1653887331 3.0000000000
 1581.6290000 95.899986267 0.0005340130 0.0023715999 0.1698292792 3.0000000000
 1582.1290000 94.425422668 0.0006349515 0.0023287099 0.2499351054 3.0000000000
 1582.6290000 91.015022278 0.0008054347 0.0022522600 0.4328125715 3.0000000000
 1583.1290000 87.080711365 0.0009245778 0.0023135599 0.5376123786 3.0000000000
 1583.6290000 83.073280334 0.0009537834 0.0024188301 0.5187615156 3.0000000000
 1584.1290000 80.033912659 0.0009600691 0.0024642302 0.5045522451 3.0000000000
 1584.6290000 78.295021057 0.0009648325 0.0024905000 0.4978212714 3.0000000000
 1585.1290000 77.703857422 0.0009713314 0.0024508799 0.5226686001 3.0000000000
 1585.6290000 78.211639404 0.0009806057 0.0023902201 0.5628925562 3.0000000000
 1586.1290000 78.372161865 0.0011919605 0.0023717799 0.8459800482 3.0000000000
 1586.6290000 77.723670959 0.0016690318 0.0023668299 1.6663327217 3.0000000000
 1587.1290000 77.032516479 0.0020690321 0.0025236600 2.2236509323 3.0000000000
 1587.6290000 76.543403625 0.0022825140 0.0027321500 2.2725679874 3.0000000000
 1588.1290000 76.261848450 0.0023043575 0.0026210500 2.5377802849 3.0000000000
 1588.6290000 76.189651489 0.0021329282 0.0024079001 2.6202809811 3.0000000000
 1589.1290000 75.086158752 0.0020905870 0.0024908700 2.3364913464 3.0000000000
 1589.6290000 72.555259705 0.0022802602 0.0026683800 2.3890426159 3.0000000000
 1590.1290000 70.821884155 0.0026461221 0.0027817800 2.9356863499 3.0000000000
 1590.6290000 70.596435547 0.0031703492 0.0028747201 3.9201612473 3.0000000000
 1591.1290000 72.219123840 0.0038763292 0.0027616899 6.4011273384 3.0000000000
 1591.6290000 75.798568726 0.0047715306 0.0025829000 11.237733841 3.0000000000
 1592.1290000 76.575828552 0.0049309377 0.0024779900 13.147404671 3.0000000000
 1592.6290000 73.031440735 0.0040592039 0.0023966799 9.5882568359 3.0000000000
 1593.1290000 70.175994873 0.0030086038 0.0024839400 4.8687734604 3.0000000000
 1593.6290000 69.609321594 0.0020512596 0.0026250202 2.0042386055 3.0000000000
 1594.1290000 72.692619324 0.0013299251 0.0026564000 0.8207460046 3.0000000000
 1594.6290000 79.860511780 0.0008901805 0.0026527601 0.3688251674 3.0000000000
 1595.1290000 87.913818359 0.0006126754 0.0023828200 0.2212382108 3.0000000000
 1595.6290000 95.831077576 0.0004593027 0.0020278499 0.1773042679 2.0000000000
 1596.1290000 100.99050903 0.0004591878 0.0020739099 0.1686720103 2.0000000000
 1596.6290000 102.55497742 0.0006216303 0.0022480199 0.2588832676 3.0000000000
 1597.1290000 98.152709961 0.0010289669 0.0024872399 0.5678372383 3.0000000000
 1597.6290000 87.026420593 0.0017074868 0.0027472400 1.2564412355 3.0000000000
 1598.1290000 79.942932129 0.0020319181 0.0027886701 1.7216255665 3.0000000000
 1598.6290000 80.339981079 0.0018026188 0.0027602999 1.3858109713 3.0000000000
 1599.1290000 83.314407349 0.0014045503 0.0026869699 0.8926812410 3.0000000000
 1599.6290000 87.300689697 0.0009606265 0.0025992598 0.4492000639 3.0000000000
 1600.1290000 90.476623535 0.0006352555 0.0025201801 0.2102555037 3.0000000000
 1600.6290000 92.260429382 0.0004809307 0.0024438500 0.1289439648 3.0000000000
 1601.1290000 91.926940918 0.0004723531 0.0025064000 0.1176583543 3.0000000000
