# LAS format log file from PETREL
# Project units are specified as depth units
#==================================================================
~Version information
VERS.   2.0:
WRAP.   NO:
#==================================================================
~Well
STRT .m      1499.8790000 :
STOP .m      2416.3790000 :
STEP .m     0.00000000 :
NULL .        -999.250000 :
COMP.           : COMPANY
WELL.  A10   : WELL
FLD.            : FIELD
LOC.            : LOCATION
SRVC.           : SERVICE COMPANY
DATE.  2024-10-09 18:32:15   : Log Export Date {yyyy-MM-dd HH:mm:ss}
PROV.           : PROVINCE
UWI.      : UNIQUE WELL ID
API.            : API NUMBER
#==================================================================
~Curve
DEPT .m                   : DEPTH
Gamma .gAPI               : Gamma
Perm .mD                  : Perm
Porosity .m3/m3           : Porosity
Resistivity .ohm.m        : Resistivity
LITH ._                   : LITH
~Parameter
#==================================================================
~Ascii
 1499.8790000  -999.250000  -999.250000  -999.250000  -999.250000  -999.250000
 1500.1290000  -999.250000  -999.250000  -999.250000  -999.250000  -999.250000
 1500.6290000  -999.250000  -999.250000  -999.250000  -999.250000  -999.250000
 1501.1290000  -999.250000  -999.250000 0.0027064600  -999.250000  -999.250000
 1501.6290000 78.869453430 0.0012457989 0.0026742802 0.7096442580 3.0000000000
 1502.1290000 78.008300781 0.0012533459 0.0025607601 0.7901877165 3.0000000000
 1502.6290000 75.581558228 0.0011712110 0.0024212601 0.7805111408 3.0000000000
 1503.1290000 73.238037109 0.0010964678 0.0023858901 0.7065791488 3.0000000000
 1503.6290000 71.504173279 0.0010601107 0.0023837700 0.6617910862 3.0000000000
 1504.1290000 71.459228516 0.0011271478 0.0024089301 0.7310523987 3.0000000000
 1504.6290000 73.447799683 0.0013183360 0.0024427900 0.9698458910 3.0000000000
 1505.1290000 75.830619812 0.0014989310 0.0025603801 1.1305596828 3.0000000000
 1505.6290000 78.084259033 0.0016259104 0.0027047200 1.1790280342 3.0000000000
 1506.1290000 79.799255371 0.0017113450 0.0026656499 1.3486782312 3.0000000000
 1506.6290000 80.844871521 0.0017590889 0.0025680200 1.5468888283 3.0000000000
 1507.1290000 80.381660461 0.0017485007 0.0025620600 1.5361554623 3.0000000000
 1507.6290000 78.141601563 0.0016729897 0.0025853801 1.3785827160 3.0000000000
 1508.1290000 77.074661255 0.0015033397 0.0025302700 1.1672050953 3.0000000000
 1508.6290000 78.122734070 0.0012302221 0.0024501299 0.8389787674 3.0000000000
 1509.1290000 80.320938110 0.0009321958 0.0024939300 0.4633070529 3.0000000000
 1509.6290000 83.361206055 0.0006343440 0.0025773100 0.1995643824 3.0000000000
 1510.1290000 86.870643616 0.0004380355 0.0026149401 0.0921727866 3.0000000000
 1510.6290000 90.730186462 0.0003756363 0.0026379698 0.0664877370 3.0000000000
 1511.1290000 93.797851563 0.0003593931 0.0024443201 0.0719766468 3.0000000000
 1511.6290000 95.709030151 0.0003612870 0.0021814799 0.0934226066 2.0000000000
 1512.1290000 95.946472168 0.0005699412 0.0021728398 0.2345303893 2.0000000000
 1512.6290000 94.345031738 0.0010455808 0.0022453601 0.7343211770 3.0000000000
 1513.1290000 87.307769775 0.0025631571 0.0024601500 3.6093993187 3.0000000000
 1513.6290000 73.686233521 0.0053701024 0.0027203599 12.699514389 3.0000000000
 1514.1290000 63.072395325 0.0070855739 0.0028320900 20.235528946 3.0000000000
 1514.6290000 58.528858185 0.0069493935 0.0028964300 18.526575089 3.0000000000
 1515.1290000 58.117874146 0.0056964615 0.0028440200 12.958612442 3.0000000000
 1515.6290000 61.220752716 0.0035614229 0.0027543399 5.4351119995 3.0000000000
 1516.1290000 65.996002197 0.0020258450 0.0026426900 1.9262415171 3.0000000000
 1516.6290000 71.855674744 0.0015627753 0.0025240299 1.2681925297 3.0000000000
 1517.1290000 76.827644348 0.0013866532 0.0023791101 1.1371655464 3.0000000000
 1517.6290000 80.282249451 0.0012466578 0.0022258100 1.0641938448 3.0000000000
 1518.1290000 82.632019043 0.0011305807 0.0023123401 0.8048025966 3.0000000000
 1518.6290000 84.008674622 0.0010345232 0.0024754500 0.5800178051 3.0000000000
 1519.1290000 85.735664368 0.0008982307 0.0024123401 0.4628188014 3.0000000000
 1519.6290000 88.235557556 0.0007024644 0.0022769999 0.3214030862 3.0000000000
 1520.1290000 90.149986267 0.0005801048 0.0024068998 0.1940016001 3.0000000000
 1520.6290000 91.045234680 0.0005735790 0.0026214800 0.1571752131 3.0000000000
 1521.1290000 90.996170044 0.0006660323 0.0025935702 0.2169776559 3.0000000000
 1521.6290000 90.026672363 0.0008520832 0.0024882301 0.3890494704 3.0000000000
 1522.1290000 86.375076294 0.0009874406 0.0024594299 0.5360263586 3.0000000000
 1522.6290000 79.478904724 0.0010260335 0.0024550699 0.5810086727 3.0000000000
 1523.1290000 75.319755554 0.0010082049 0.0025212700 0.5290966630 3.0000000000
 1523.6290000 75.807525635 0.0009468358 0.0026100001 0.4324542582 3.0000000000
 1524.1290000 80.953361511 0.0008418212 0.0024764200 0.3837304413 3.0000000000
 1524.6290000 90.760841370 0.0006931277 0.0022718399 0.3144818544 3.0000000000
 1525.1290000 97.119331360 0.0005525533 0.0023017700 0.1941834241 3.0000000000
 1525.6290000 97.439201355 0.0004366362 0.0024065799 0.1099408120 3.0000000000
 1526.1290000 95.756301880 0.0003954545 0.0023211699 0.0976422355 3.0000000000
 1526.6290000 93.359237671 0.0004449974 0.0021750301 0.1426564455 2.0000000000
 1527.1290000 90.273406982 0.0005995884 0.0022510400 0.2401393801 3.0000000000
 1527.6290000 86.506942749 0.0008638006 0.0023979899 0.4336735010 3.0000000000
 1528.1290000 83.491195679 0.0011334898 0.0024864799 0.6895222664 3.0000000000
 1528.6290000 81.683189392 0.0013754033 0.0025563100 0.9552352428 3.0000000000
 1529.1290000 80.336387634 0.0015038928 0.0026158101 1.0856755972 3.0000000000
 1529.6290000 79.212402344 0.0014916111 0.0026720199 1.0192105770 3.0000000000
 1530.1290000 78.285911560 0.0012898406 0.0026711100 0.7626937032 3.0000000000
 1530.6290000 77.548820496 0.0008830260 0.0026519599 0.3631614447 3.0000000000
 1531.1290000 77.908432007 0.0006597944 0.0026119100 0.2096569389 3.0000000000
 1531.6290000 79.654434204 0.0007442300 0.0025651900 0.2775564790 3.0000000000
 1532.1290000 82.109657288 0.0008668094 0.0024949200 0.4002419710 3.0000000000
 1532.6290000 85.057876587 0.0009414764 0.0024171399 0.5062382817 3.0000000000
 1533.1290000 88.541397095 0.0008804096 0.0024616800 0.4252654016 3.0000000000
 1533.6290000 92.573745728 0.0006555683 0.0025452701 0.2190894037 3.0000000000
 1534.1290000 92.706634521 0.0007618961 0.0026618200 0.2681627274 3.0000000000
 1534.6290000 87.519775391 0.0013574231 0.0027888899 0.7682126760 3.0000000000
 1535.1290000 80.937217712 0.0020034341 0.0027126700 1.7785938978 3.0000000000
 1535.6290000 74.211860657 0.0025598523 0.0025715400 3.2659130096 3.0000000000
 1536.1290000 69.055145264 0.0027714833 0.0026021299 3.7299306393 3.0000000000
 1536.6290000 66.013549805 0.0025568460 0.0026875499 2.9568190575 3.0000000000
 1537.1290000 65.364135742 0.0022143284 0.0027053200 2.1857628822 3.0000000000
 1537.6290000 67.195396423 0.0018392028 0.0027015000 1.5126147270 3.0000000000
 1538.1290000 70.258819580 0.0014822797 0.0026890701 0.9925118089 3.0000000000
 1538.6290000 74.155769348 0.0011597823 0.0026738800 0.6152346134 3.0000000000
 1539.1290000 78.571792603 0.0009397549 0.0026652801 0.4068131149 3.0000000000
 1539.6290000 83.406455994 0.0008439231 0.0026587900 0.3298381269 3.0000000000
 1540.1290000 86.221710205 0.0007593863 0.0026350201 0.2723960876 3.0000000000
 1540.6290000 86.239112854 0.0006500968 0.0026057402 0.2046009302 3.0000000000
 1541.1290000 84.986068726 0.0005440420 0.0024346900 0.1663752496 3.0000000000
 1541.6290000 82.950256348 0.0004501578 0.0022183799 0.1397817731 3.0000000000
 1542.1290000 81.365020752 0.0004189704 0.0023254701 0.1091548204 3.0000000000
 1542.6290000 80.624145508 0.0004666122 0.0025358200 0.1119055375 3.0000000000
 1543.1290000 79.560142517 0.0005263623 0.0024472999 0.1539776772 3.0000000000
 1543.6290000 77.800262451 0.0005769176 0.0022633402 0.2196736485 3.0000000000
 1544.1290000 76.190826416 0.0006157624 0.0023281199 0.2351876497 3.0000000000
 1544.6290000 75.002067566 0.0006420932 0.0024723201 0.2240607888 3.0000000000
 1545.1290000 76.785156250 0.0006329805 0.0024728801 0.2176375985 3.0000000000
 1545.6290000 82.354660034 0.0005811028 0.0024275698 0.1910416782 3.0000000000
 1546.1290000 86.284805298 0.0005705029 0.0024377301 0.1824515015 3.0000000000
 1546.6290000 86.843200684 0.0006280149 0.0024656001 0.2156304121 3.0000000000
 1547.1290000 85.263038635 0.0007213561 0.0023307700 0.3219591081 3.0000000000
 1547.6290000 81.938041687 0.0008402196 0.0021439900 0.5249228477 2.0000000000
 1548.1290000 79.117103577 0.0008899370 0.0022894500 0.5096945763 3.0000000000
 1548.6290000 77.518249512 0.0008402820 0.0025409800 0.3612828255 3.0000000000
 1549.1290000 75.644775391 0.0010632928 0.0025910300 0.5541998744 3.0000000000
 1549.6290000 73.018806458 0.0016777575 0.0025767600 1.3966758251 3.0000000000
 1550.1290000 69.979316711 0.0025292106 0.0027857102 2.6736893654 3.0000000000
